City_ID,City,Lat,Lng,Max Temp,Humidity,Cloudiness,Wind Speed,Country,Date
0,vorgashor,67.5833,63.95,-12.82,89,100,11.18,RU,1710692579
1,coahuayana de hidalgo,18.7,-103.6583,27.95,38,90,1.27,MX,1710692579
2,upata,8.0086,-62.3989,34.02,38,89,4.3,VE,1710692579
3,adamstown,-25.066,-130.1015,26.16,83,39,4.5,PN,1710692579
4,san luis de la loma,17.2706,-100.8939,28.48,50,53,1.76,MX,1710692580
5,hithadhoo,-0.6,73.0833,28.68,66,73,1.4,MV,1710692580
6,tura,25.5198,90.2201,21.73,21,0,1.42,IN,1710692580
7,adrar,20.5022,-10.0711,34.38,5,0,7.82,MR,1710692580
8,ushuaia,-54.8,-68.3,4.81,81,75,6.17,AR,1710692354
9,port-aux-francais,-49.35,70.2167,8.18,96,100,17.27,TF,1710692581
10,naberera,-4.2,36.9333,21.07,77,42,3.16,TZ,1710692581
11,ta`u,-14.2336,-169.5144,28.48,73,97,3.29,AS,1710692581
12,kone,-21.0595,164.8658,24.47,92,94,1.92,NC,1710692582
13,edinburgh of the seven seas,-37.0676,-12.3116,18.63,87,8,5.7,SH,1710692582
14,port elizabeth,-33.918,25.5701,21.17,81,75,5.66,ZA,1710692582
15,bethel,41.3712,-73.414,14.53,47,0,7.2,US,1710692582
16,college,64.8569,-147.8028,-12.01,73,100,2.57,US,1710692582
17,verkh-tula,54.8839,82.7762,-3.12,80,0,7.0,RU,1710692583
18,carbonear,47.7332,-53.2148,3.41,79,92,1.27,CA,1710692583
19,canmore,51.0834,-115.3521,5.22,86,57,3.09,CA,1710692583
20,san isidro,-12.1167,-77.05,24.77,69,0,3.09,PE,1710692508
21,lorengau,-2.0226,147.2712,27.13,84,100,5.13,PG,1710692584
22,ginir,7.1333,40.7,21.23,30,5,3.08,ET,1710692585
23,pisco,-13.7,-76.2167,26.68,78,0,3.6,PE,1710692585
24,nadym,65.5333,72.5167,-1.09,75,100,10.8,RU,1710692585
25,badger,64.8,-147.5333,-12.05,75,100,2.57,US,1710692567
26,jebba,9.1333,4.8333,42.06,19,51,2.2,NG,1710692586
27,bahia de kino,28.8333,-111.9333,19.4,45,51,5.55,MX,1710692586
28,hotan,37.0997,79.9269,7.86,18,0,2.14,CN,1710692586
29,hawaiian paradise park,19.5933,-154.9731,19.73,98,100,2.06,US,1710692587
30,waingapu,-9.6567,120.2641,25.9,87,100,2.74,ID,1710692587
31,mocimboa,-11.3167,40.35,26.08,90,100,2.53,MZ,1710692587
32,blackmans bay,-43.0167,147.3167,14.18,88,0,0.45,AU,1710692587
33,saipan,15.1355,145.701,26.39,73,40,6.69,MP,1710692588
34,dadeldhura,29.2984,80.5806,10.36,32,97,0.94,NP,1710692588
35,mount isa,-20.7333,139.5,27.87,57,100,3.09,AU,1710692588
36,keflavik,64.0049,-22.5624,6.95,93,100,9.26,IS,1710692588
37,ishigaki,24.3448,124.1572,21.07,94,100,6.69,JP,1710692589
38,cidreira,-30.1811,-50.2056,26.19,74,97,4.17,BR,1710692354
39,lihue,21.9789,-159.3672,18.77,73,100,6.69,US,1710692589
40,parkersburg,39.2667,-81.5615,12.38,34,0,6.69,US,1710692518
41,arvayheer,46.2639,102.775,-6.76,46,88,8.1,MN,1710692590
42,puerto natales,-51.7236,-72.4875,5.25,75,75,10.29,CL,1710692561
43,papatowai,-46.5619,169.4708,9.55,82,75,6.54,NZ,1710692590
44,albany,42.6001,-73.9662,10.36,79,53,2.24,US,1710692469
45,grytviken,-54.2811,-36.5092,4.52,70,1,0.62,GS,1710692590
46,la sarre,48.8002,-79.1996,0.76,100,100,0.74,CA,1710692591
47,howard springs,-12.497,131.047,28.95,93,100,5.56,AU,1710692591
48,atafu village,-8.5421,-172.5159,28.89,77,48,4.85,TK,1710692591
49,midvagur,62.0511,-7.1939,8.46,87,100,6.17,FO,1710692592
50,musoma,-1.5,33.8,24.86,73,7,4.24,TZ,1710692592
51,anadyr,64.75,177.4833,-21.72,84,0,2.0,RU,1710692490
52,yarmouth,41.7057,-70.2286,12.19,83,75,5.66,US,1710692536
53,fale old settlement,-9.3852,-171.2468,29.2,74,59,5.13,TK,1710692593
54,matoury,4.8483,-52.3317,31.98,66,20,8.23,GF,1710692593
55,east london,-33.0153,27.9116,19.52,72,100,2.57,ZA,1710692594
56,tarnogskiy gorodok,60.4997,43.5761,1.64,98,100,3.41,RU,1710692358
57,port lincoln,-34.7333,135.8667,17.42,94,39,4.23,AU,1710692594
58,avarua,-21.2078,-159.775,24.03,94,94,1.54,CK,1710692594
59,balcarce,-37.8462,-58.2552,23.23,58,0,2.24,AR,1710692594
60,waitangi,-43.9535,-176.5597,12.68,85,77,3.13,NZ,1710692595
61,buldana,20.5333,76.1833,30.02,21,71,1.05,IN,1710692595
62,palikir - national government center,6.9248,158.1611,23.41,94,100,1.54,FM,1710692595
63,ilulissat,69.2167,-51.1,-15.99,85,75,0.0,GL,1710692595
64,hawera,-39.5917,174.2833,14.02,86,28,5.35,NZ,1710692345
65,lebu,-37.6167,-73.65,15.09,60,62,6.59,CL,1710692596
66,pathein,16.7833,94.7333,24.1,81,88,2.29,MM,1710692596
67,singaraja,-8.112,115.0882,26.53,86,67,1.14,ID,1710692357
68,kisvarda,48.2167,22.0833,8.51,61,72,1.55,HU,1710692596
69,aketi,2.7388,23.7833,31.24,47,51,3.89,CD,1710692597
70,fortuna,40.5982,-124.1573,10.55,94,100,1.34,US,1710692597
71,teror,28.0606,-15.5491,24.12,46,96,2.08,ES,1710692597
72,port alfred,-33.5906,26.891,19.54,82,100,0.89,ZA,1710692598
73,margate,51.3813,1.3862,14.37,91,96,1.79,GB,1710692598
74,abepura,-2.6333,140.5833,24.45,94,40,1.03,ID,1710692598
75,xiva,41.3783,60.3639,10.99,30,29,0.63,UZ,1710692300
76,minas de marcona,-15.2119,-75.1103,22.57,70,95,4.86,PE,1710692599
77,le port,-20.9373,55.2919,28.0,80,20,1.39,RE,1710692599
78,yellowknife,62.456,-114.3525,-7.71,62,75,9.26,CA,1710692599
79,port mathurin,-19.6833,63.4167,26.75,78,1,7.17,MU,1710692599
80,mount gambier,-37.8333,140.7667,17.99,72,8,2.65,AU,1710692599
81,crane,31.3974,-102.3501,11.26,78,100,4.71,US,1710692600
82,lakatoro,-16.0999,167.4164,26.93,87,100,2.27,VU,1710692600
83,fort st. john,56.2499,-120.8529,3.94,75,20,2.06,CA,1710692600
84,masterton,-40.9597,175.6575,12.71,94,97,0.47,NZ,1710692600
85,st. john's,47.5649,-52.7093,2.86,68,75,4.63,CA,1710692345
86,bredasdorp,-34.5322,20.0403,19.23,66,100,8.5,ZA,1710692601
87,constantia,44.1833,28.65,11.5,79,31,6.4,RO,1710692462
88,iqaluit,63.7506,-68.5145,-19.15,78,75,0.0,CA,1710692601
89,aasiaat,68.7098,-52.8699,-19.52,97,64,2.37,GL,1710692602
90,plaza huincul,-38.926,-69.2086,21.88,11,64,2.77,AR,1710692421
91,stanley,54.868,-1.6985,13.77,89,40,2.06,GB,1710692595
92,kavaratti,10.5669,72.642,27.91,72,13,5.1,IN,1710692602
93,berdigestyakh,62.0989,126.6992,-28.35,100,54,0.76,RU,1710692603
94,alofi,-19.0595,-169.9187,25.94,94,100,1.54,NU,1710692603
95,camana,-16.6228,-72.7111,24.5,83,100,3.68,PE,1710692603
96,nelson bay,-32.7167,152.15,20.0,97,98,1.79,AU,1710692604
97,tazovsky,67.4667,78.7,-8.3,93,100,7.57,RU,1710692604
98,tromso,69.6496,18.957,-2.99,68,75,9.26,NO,1710692383
99,isafjordur,66.0755,-23.124,-3.98,80,75,12.35,IS,1710692604
100,ciudad sabinas hidalgo,26.5,-100.1667,19.95,83,100,2.98,MX,1710692604
101,puerto deseado,-47.7503,-65.8938,12.87,31,3,9.36,AR,1710692482
102,bousso,10.4795,16.7117,40.62,11,85,2.39,TD,1710692605
103,nurota,40.5614,65.6886,15.37,38,100,0.97,UZ,1710692334
104,kangding,30.0513,101.9603,4.99,79,63,1.09,CN,1710692605
105,kodiak,57.79,-152.4072,-1.27,80,0,4.63,US,1710692606
106,hadibu,12.65,54.0333,25.82,67,0,4.8,YE,1710692606
107,byron bay,-28.65,153.6167,20.39,86,42,2.59,AU,1710692606
108,invercargill,-46.4,168.35,10.57,85,83,4.92,NZ,1710692599
109,cabo san lucas,22.8909,-109.9124,22.01,69,0,1.54,MX,1710691873
110,whitehorse,60.7161,-135.0538,4.43,70,20,4.63,CA,1710692607
111,i-n-salah,27.1935,2.4607,29.64,11,0,6.72,DZ,1710692607
112,muang xay,20.7,101.9833,23.34,39,4,1.02,LA,1710692607
113,margaret river,-33.95,115.0667,16.88,84,1,5.38,AU,1710692607
114,litchfield,41.7668,-73.2501,12.56,55,72,1.79,US,1710692608
115,longyearbyen,78.2186,15.6401,-22.09,64,20,0.0,SJ,1710692479
116,churachandpur,24.3333,93.6667,16.05,53,0,0.94,IN,1710692382
117,olonkinbyen,70.9221,-8.7187,-6.09,87,100,14.3,SJ,1710692608
118,kapoeta,4.7717,33.5903,35.63,22,5,7.23,SS,1710692609
119,puerto baquerizo moreno,-0.9,-89.6,29.55,74,20,0.0,EC,1710692407
120,amahai,-3.3333,128.9167,26.64,82,100,2.32,ID,1710692539
121,bikenibeu village,1.3673,173.1241,27.98,89,40,4.12,KI,1710692609
122,kloulklubed,7.0419,134.2556,25.28,79,85,6.79,PW,1710692609
123,karasburg,-28.0167,18.75,36.29,10,5,5.99,NA,1710692610
124,wailua homesteads,22.0669,-159.378,18.44,73,100,6.69,US,1710692610
125,bilibino,68.0546,166.4372,-24.9,81,16,1.77,RU,1710692611
126,diu,20.7141,70.9822,24.39,66,1,3.98,IN,1710692611
127,turbat,26.0023,63.044,26.49,35,68,3.33,PK,1710692611
128,saldanha,-33.0117,17.9442,28.03,64,68,5.29,ZA,1710692611
129,punta arenas,-53.15,-70.9167,6.06,70,75,11.32,CL,1710692521
130,sansanne-mango,10.3592,0.4708,42.78,5,25,1.79,TG,1710692612
131,kiskoros,46.6214,19.2853,12.75,42,0,5.03,HU,1710692612
132,luderitz,-26.6481,15.1594,20.76,70,0,5.98,NA,1710692612
133,mejit,10.2753,170.8646,26.73,78,100,7.22,MH,1710692613
134,bubaque,11.2833,-15.8333,26.51,66,3,5.73,GW,1710692613
135,west island,-12.1568,96.8225,24.99,83,23,0.51,CC,1710692613
136,chernigovka,44.3389,132.5728,-5.68,71,96,3.98,RU,1710692613
137,swakopmund,-22.6833,14.5333,17.21,82,54,4.02,NA,1710692613
138,tiksi,71.6872,128.8694,-27.83,97,48,3.11,RU,1710692614
139,labytnangi,66.6572,66.4183,-7.08,74,89,11.44,RU,1710692437
140,afaahiti,-17.75,-149.2833,24.93,78,51,0.74,PF,1710692614
141,georgetown,5.4112,100.3354,27.96,88,20,0.51,MY,1710692570
142,dudinka,69.4058,86.1778,-15.21,93,100,4.02,RU,1710692615
143,port saint john's,-31.6229,29.5448,19.78,85,100,1.8,ZA,1710692615
144,iskateley,67.6803,53.1512,-8.32,92,83,4.47,RU,1710692615
145,horta,38.5333,-28.6333,16.8,79,20,8.94,PT,1710692615
146,ekibastuz,51.6667,75.3667,-3.12,84,33,3.06,KZ,1710692616
147,sarykemer,43.0,71.5,3.71,55,17,0.91,KZ,1710692616
148,zhumysker,49.3333,49.4,3.87,78,100,1.42,KZ,1710692616
149,san patricio,28.017,-97.5169,23.05,74,27,3.67,US,1710692616
150,jijiga,9.35,42.8,24.57,43,3,8.7,ET,1710692616
151,lerwick,60.1545,-1.1494,7.0,94,100,13.38,GB,1710692617
152,mahriz,31.5917,54.4318,19.28,31,0,1.3,IR,1710692617
153,cuamba,-14.8031,36.5372,22.66,89,25,1.13,MZ,1710692617
154,hermanus,-34.4187,19.2345,21.0,65,100,9.86,ZA,1710692618
155,rio grande,-32.035,-52.0986,28.06,79,53,6.26,BR,1710692618
156,constitucion,-35.3333,-72.4167,19.14,48,8,6.37,CL,1710692618
157,codrington,-38.2667,141.9667,18.98,57,0,5.79,AU,1710692618
158,colonia,50.9333,6.95,15.79,58,0,4.63,DE,1710692569
159,moussoro,13.6408,16.4901,36.46,9,29,6.47,TD,1710692619
160,santa terezinha,-29.9002,-50.0904,26.24,76,92,3.87,BR,1710692619
161,argostolion,38.1811,20.489,17.04,60,20,4.63,GR,1710692619
162,freetown,8.484,-13.2299,28.95,71,9,5.47,SL,1710692620
163,sumbawa besar,-8.5,117.4333,23.87,98,100,1.27,ID,1710692620
164,praia da vitoria,38.7333,-27.0667,19.14,59,20,7.56,PT,1710692620
165,thompson,55.7435,-97.8558,-18.91,60,20,5.14,CA,1710692620
166,ensenada,31.8667,-116.6167,13.3,74,1,1.0,MX,1710692620
167,polatsk,55.4859,28.7756,1.98,97,100,1.7,BY,1710692397
168,osakarovka,50.565,72.5692,-10.79,84,7,1.86,KZ,1710692621
169,sandnessjoen,66.0217,12.6316,2.06,51,0,2.57,NO,1710692621
170,broken hill,-31.95,141.4333,21.02,66,45,4.01,AU,1710692621
171,zhangjiakou,40.81,114.8794,4.31,38,84,1.99,CN,1710692622
172,rongelap,11.1635,166.8941,26.56,76,100,2.56,MH,1710692622
173,roswell,34.0232,-84.3616,18.01,64,100,4.12,US,1710692369
174,ribeira grande,38.5167,-28.7,17.22,77,20,8.94,PT,1710692622
175,susuman,62.7833,148.1667,-23.06,100,86,1.33,RU,1710692623
176,ulaangom,49.9811,92.0667,-14.69,86,90,1.72,MN,1710692623
177,arno,60.1167,18.6333,-1.23,65,2,8.14,SE,1710692623
178,necochea,-38.5473,-58.7368,24.6,29,0,5.8,AR,1710692419
179,sao felix do xingu,-6.6447,-51.995,27.13,94,78,1.36,BR,1710692623
180,wynyard,-41.0,145.7167,17.01,92,69,5.62,AU,1710692624
181,petropavlovsk-kamchatsky,53.0452,158.6483,-2.53,86,75,22.35,RU,1710692585
182,port isabel,26.0734,-97.2086,28.02,83,75,3.6,US,1710692625
183,tindouf,27.6711,-8.1474,33.25,9,20,8.23,DZ,1710692625
184,karasu,41.071,30.7854,8.25,85,29,2.89,TR,1710692558
185,yaren,-0.5472,166.916,28.06,74,95,1.88,NR,1710692626
186,katsuura,35.1333,140.3,14.31,78,100,7.12,JP,1710692626
187,christchurch,-43.5333,172.6333,12.19,82,100,4.12,NZ,1710692627
188,dickinson,29.4608,-95.0513,23.42,91,75,2.06,US,1710692536
189,kas,36.2018,29.6377,14.98,76,79,0.99,TR,1710692627
190,magadan,59.5667,150.8,-2.48,85,100,7.74,RU,1710692627
191,port douglas,-16.4833,145.4667,26.11,93,100,4.43,AU,1710692628
192,mugia,43.1041,-9.2179,16.06,98,100,2.49,ES,1710692628
193,nishinoomote,30.7333,131.0,16.74,74,11,9.65,JP,1710692628
194,halmstad,56.6745,12.8568,6.68,38,12,4.12,SE,1710692629
195,veinticinco de mayo,-35.4323,-60.1727,25.55,73,0,1.79,AR,1710692629
196,jalqani,12.4486,34.2186,38.59,19,14,2.39,SD,1710692629
197,hannibal,39.7084,-91.3585,6.37,45,75,4.63,US,1710692356
198,arkhangel'sk,64.5401,40.5433,-4.37,67,40,3.0,RU,1710692751
199,enewetak,11.3474,162.3373,26.21,79,100,2.38,MH,1710692751
200,ormara,25.2088,64.6357,24.38,61,4,3.6,PK,1710692751
201,marang,5.2056,103.2059,27.95,81,86,2.36,MY,1710692751
202,las tablas,7.7667,-80.2833,31.76,99,73,4.73,PA,1710692752
203,lompoc,34.6391,-120.4579,14.4,68,0,3.6,US,1710692605
204,guerrero negro,27.9769,-114.0611,16.92,61,1,1.42,MX,1710692622
205,alice springs,-23.7,133.8833,26.79,31,54,2.57,AU,1710692593
206,haiku-pauwela,20.9219,-156.3051,20.58,86,20,6.17,US,1710692752
207,pandan,14.0453,124.1694,25.23,73,30,3.31,PH,1710692753
208,pitimbu,-7.4706,-34.8086,32.33,70,93,4.59,BR,1710692753
209,san antonio de pale,-1.4014,5.6325,29.48,74,95,4.54,GQ,1710692753
210,yuzhno-kurilsk,44.0306,145.8556,0.76,70,100,14.71,RU,1710692753
211,turpan,42.9333,89.1667,9.28,20,0,0.8,CN,1710692753
212,ancud,-41.8697,-73.8203,13.35,67,100,3.73,CL,1710692754
213,thunder bay,48.4001,-89.3168,-8.01,53,75,9.77,CA,1710692754
214,utrik,11.2278,169.8474,26.77,78,97,4.25,MH,1710692754
215,ceerigaabo,10.6162,47.368,21.48,30,1,4.48,SO,1710692754
216,bhimunipatnam,17.8833,83.4333,26.73,69,89,3.24,IN,1710692755
217,karratha,-20.7377,116.8463,29.45,71,93,4.97,AU,1710692755
218,hanceville,34.0607,-86.7675,16.21,80,100,0.42,US,1710692755
219,puerto lempira,15.2667,-83.7667,31.35,53,4,3.92,HN,1710692488
220,sao jose da coroa grande,-8.8978,-35.1478,30.4,66,100,4.3,BR,1710692755
221,bogale,16.2833,95.4,26.55,67,41,3.15,MM,1710692756
222,aquin,18.2833,-73.4,27.65,73,28,4.73,HT,1710692756
223,saint-philippe,-21.3585,55.7679,27.77,85,41,5.19,RE,1710692756
224,santiago de cao,-7.9589,-79.2392,23.07,83,60,4.12,PE,1710692756
225,angaur state,6.906,134.13,27.88,79,85,6.71,PW,1710692757
226,priargunsk,50.3691,119.1012,-22.26,92,7,1.53,RU,1710692757
227,as suwayrah,32.9256,44.7758,22.23,22,27,4.73,IQ,1710692757
228,kragujevac,44.0167,20.9167,14.16,58,47,2.05,RS,1710692757
229,krasyliv,49.6519,26.9725,6.6,63,100,3.58,UA,1710692758
230,talnakh,69.4865,88.3972,-15.44,95,100,3.91,RU,1710692758
231,at taj,24.2049,23.2857,21.81,24,0,7.76,LY,1710692758
232,vellore,12.9333,79.1333,25.24,57,0,2.93,IN,1710692758
233,flying fish cove,-10.4217,105.6791,24.82,88,40,3.09,CX,1710692576
234,nuuk,64.1835,-51.7216,-5.66,79,40,4.63,GL,1710692759
235,gisborne,-38.6533,178.0042,12.69,85,2,2.09,NZ,1710692759
236,namibe,-15.1961,12.1522,26.6,69,35,5.48,AO,1710692759
237,armidale,-30.5167,151.65,13.15,98,100,1.83,AU,1710692759
238,hasaki,35.7333,140.8333,14.22,71,100,6.93,JP,1710692760
239,puerto ayora,-0.7393,-90.3518,31.98,73,41,0.97,EC,1710692760
240,minggang,32.4586,114.0486,8.92,77,100,3.59,CN,1710692760
241,conduaga,8.862,117.4893,24.82,81,11,1.19,PH,1710692760
242,castillos,-34.1667,-53.8333,23.52,50,0,4.01,UY,1710692761
243,kidal,18.4411,1.4078,33.58,7,0,8.6,ML,1710692761
244,kiunga,-6.1219,141.2906,23.76,98,100,2.22,PG,1710692761
245,callao,-12.0667,-77.15,25.16,69,0,3.09,PE,1710692486
246,geraldton,-28.7667,114.6,21.23,78,40,7.2,AU,1710692762
247,abbeville,50.1,1.8333,14.16,92,100,3.25,FR,1710692541
248,tsiombe,-25.3,45.4833,26.6,81,82,4.08,MG,1710692762
249,ocos,14.5094,-92.1933,32.1,60,2,3.66,GT,1710692762
250,la junta,37.985,-103.5438,10.59,51,0,5.14,US,1710692763
251,kingston,17.997,-76.7936,31.76,60,20,8.23,JM,1710692478
252,pacific grove,36.6177,-121.9166,14.68,82,0,0.89,US,1710692624
253,raja,8.4596,25.678,35.1,25,82,2.14,SS,1710692763
254,andrelandia,-21.7397,-44.3092,30.13,50,23,2.08,BR,1710692765
255,caleta de carquin,-11.0925,-77.6267,25.01,74,69,3.51,PE,1710692765
256,barabai,-2.5833,115.3833,24.62,92,92,0.31,ID,1710692765
257,colima,19.1667,-104.0,27.78,32,95,1.39,MX,1710692765
258,al ghayzah,16.2079,52.176,26.06,64,0,4.18,YE,1710692766
259,antalaha,-14.9003,50.2788,25.98,83,34,3.57,MG,1710692766
260,xilin hot,43.9667,116.0333,-4.62,96,61,2.45,CN,1710692766
261,raduzhny,62.0961,77.475,0.98,99,100,6.58,RU,1710692766
262,ilembula,-8.9,34.5833,19.06,92,78,3.3,TZ,1710692767
263,ndele,8.4109,20.6473,33.15,34,79,1.59,CF,1710692768
264,buncrana,55.1333,-7.45,14.87,92,98,3.36,IE,1710692724
265,taoudenni,22.6783,-3.9836,34.7,4,0,9.4,ML,1710692768
266,lata,40.1629,-8.3327,24.16,48,100,2.72,PT,1710692768
267,golfito,8.639,-83.166,30.95,66,100,1.69,CR,1710692769
268,dunedin,-45.8742,170.5036,11.0,71,70,6.71,NZ,1710692493
269,wewak,-3.5534,143.6268,25.59,91,100,3.52,PG,1710692769
270,horodnya,51.8909,31.5974,7.19,84,100,5.18,UA,1710692769
271,champerico,14.3,-91.9167,32.3,57,5,2.98,GT,1710692770
272,cockburn town,21.4612,-71.1419,26.98,74,20,5.14,TC,1710692601
273,bela,25.9333,81.9833,24.67,15,91,3.05,IN,1710692770
274,kapuskasing,49.4169,-82.4331,0.05,86,100,5.66,CA,1710692641
275,durban,-29.8579,31.0292,20.51,83,100,4.62,ZA,1710692771
276,thinadhoo,0.5333,72.9333,28.43,67,42,0.49,MV,1710692771
277,quellon,-43.1167,-73.6167,11.06,86,100,2.47,CL,1710692771
278,las lajitas,-24.6833,-64.25,28.77,70,98,2.24,AR,1710692682
279,federacion,-31.0062,-57.8996,25.94,70,66,5.17,AR,1710692772
280,remire-montjoly,4.9167,-52.2667,32.02,66,20,8.23,GF,1710692772
281,qarqaraly,49.4058,75.4742,-11.62,82,7,1.84,KZ,1710692772
282,cambria,35.5641,-121.0808,12.34,100,6,0.45,US,1710692607
283,kertih,4.5141,103.4483,25.01,94,96,0.0,MY,1710692773
284,labrador city,52.9463,-66.9114,-3.05,74,75,2.06,CA,1710692773
285,saacow,1.6279,42.4407,35.54,33,9,7.94,SO,1710692773
286,ust-nera,64.5667,143.2,-20.23,99,84,1.56,RU,1710692773
287,kattivakkam,13.2167,80.3167,28.05,72,0,4.1,IN,1710692774
288,gadzhiyevo,69.2551,33.3362,-7.44,83,72,9.37,RU,1710692774
289,collie,-33.3667,116.15,13.1,98,1,1.88,AU,1710692774
290,vila franca do campo,37.7167,-25.4333,18.27,99,57,4.34,PT,1710692774
291,jamestown,42.097,-79.2353,4.77,86,100,5.14,US,1710692022
292,grand falls-windsor,48.9332,-55.6649,0.59,91,100,1.38,CA,1710692616
293,mil'kovo,55.6078,37.7956,4.22,99,100,2.92,RU,1710692775
294,ola,59.5833,151.2833,-2.14,80,100,8.36,RU,1710692775
295,tres arroyos,-38.3739,-60.2798,26.07,20,2,6.2,AR,1710692665
296,aoulef,26.9667,1.0833,29.94,11,0,6.87,DZ,1710692776
297,kuala belait,4.5833,114.1833,25.09,89,90,3.04,BN,1710692776
298,vorkuta,67.5,64.0,-12.76,88,100,11.28,RU,1710692776
299,inderbor,48.55,51.7833,4.13,87,100,5.87,KZ,1710692776
300,jiangyan,32.5061,120.1428,6.66,77,96,2.46,CN,1710692777
301,anloga,5.7947,0.8973,30.02,74,20,7.35,GH,1710692777
302,douz,33.4663,9.0203,24.65,23,5,2.36,TN,1710692777
303,puerto la cruz,10.2167,-64.6167,28.19,71,43,3.44,VE,1710692611
304,borazjan,29.2666,51.2159,24.51,49,94,0.88,IR,1710692778
305,namalenga,-10.95,39.1,23.32,97,96,1.58,TZ,1710692778
306,kailua-kona,19.6406,-155.9956,21.95,82,0,2.06,US,1710692778
307,nova sintra,14.8667,-24.7167,20.72,78,85,12.3,CV,1710692778
308,touros,-5.1989,-35.4608,31.04,66,99,5.95,BR,1710692779
309,kyongwon,42.8136,130.1528,-2.11,48,3,5.71,KP,1710692779
310,hatillo,18.4863,-66.8254,32.44,80,0,5.36,PR,1710692774
311,chonchi,-42.6128,-73.8092,12.56,70,100,1.36,CL,1710692779
312,tchintabaraden,15.8969,5.7985,35.79,6,0,5.12,NE,1710692779
313,khanty-mansiysk,61.0042,69.0019,3.06,65,0,8.05,RU,1710692571
314,udachny,66.4167,112.4,-13.64,84,100,4.07,RU,1710692780
315,piacabucu,-10.4056,-36.4344,30.32,68,74,4.51,BR,1710692780
316,awjilah,29.1081,21.2869,20.19,34,22,5.95,LY,1710692780
317,chibougamau,49.9168,-74.3659,-1.21,64,100,3.6,CA,1710692780
318,clarence town,-32.5833,151.7833,19.92,98,99,0.17,AU,1710692781
319,ust'-ilimsk,58.0006,102.6619,-4.2,87,100,4.02,RU,1710692781
320,qaqortoq,60.7167,-46.0333,-5.15,86,100,0.79,GL,1710692781
321,tangalle,6.024,80.7911,25.79,70,2,4.52,LK,1710692782
322,matelandia,-25.2408,-53.9964,35.51,37,51,2.95,BR,1710692782
323,kiruna,67.8557,20.2251,-7.49,53,90,5.14,SE,1710692782
324,meadow lake,34.8014,-106.5436,7.69,74,99,6.41,US,1710692782
325,binzhou,37.3667,118.0167,3.37,39,100,3.03,CN,1710692783
326,san andres,12.5847,-81.7006,30.01,70,20,6.17,CO,1710692783
327,orumiyeh,37.5527,45.0761,7.75,53,40,4.12,IR,1710692783
328,ternate,0.8,127.4,26.52,77,75,3.77,ID,1710692783
329,mahenge,-8.6833,36.7167,19.89,94,83,1.31,TZ,1710692784
330,carutapera,-1.195,-46.02,27.52,89,100,3.06,BR,1710692570
331,new norfolk,-42.7826,147.0587,14.84,97,0,1.31,AU,1710692785
332,quang ngai,15.1167,108.8,22.34,95,0,1.95,VN,1710692785
333,sitka,57.0531,-135.33,6.94,87,100,6.17,US,1710692524
334,kresttsy,58.2452,32.5165,3.99,98,100,1.35,RU,1710692785
335,zakynthos,37.7914,20.8953,17.62,52,40,3.6,GR,1710692613
336,arraial do cabo,-22.9661,-42.0278,36.98,62,0,4.63,BR,1710692786
337,padang,-0.9492,100.3543,26.03,88,99,1.76,ID,1710692516
338,klyuchi,52.2667,79.1667,-2.4,91,100,3.58,RU,1710692786
339,nyurba,63.2842,118.3319,-11.87,94,100,2.74,RU,1710692787
340,barkly west,-28.5354,24.5215,34.6,11,7,6.63,ZA,1710692787
341,mount pearl,47.5166,-52.7813,2.69,67,75,4.63,CA,1710692787
342,itoman,26.1247,127.6694,19.43,79,20,8.75,JP,1710692788
343,panyutyne,48.9333,36.2833,7.06,74,100,1.66,UA,1710692788
344,verkhniy ufaley,56.0567,60.2306,-3.47,89,7,2.06,RU,1710692788
345,chebba,35.2372,11.115,17.84,63,37,6.2,TN,1710692788
346,carnarvon,-24.8667,113.6333,25.92,72,57,9.47,AU,1710692789
347,jumla,29.2747,82.1838,5.98,46,94,2.2,NP,1710692789
348,eduardo castex,-35.915,-64.2945,26.15,41,5,6.75,AR,1710692789
349,kurakhovo,47.9852,37.2821,6.94,76,96,0.54,UA,1710692790
350,marion,39.7684,-86.1555,7.34,44,40,8.75,US,1710692490
351,rovaniemi,66.5,25.7167,-6.33,58,0,3.6,FI,1710692790
352,belomorsk,64.5232,34.7668,-6.39,82,60,1.12,RU,1710692790
353,dawei,14.0833,98.2,26.74,70,79,0.53,MM,1710692790
354,zhatay,62.1594,129.8294,-24.97,77,0,2.0,RU,1710692791
355,dunay,42.8803,132.3375,-2.38,62,34,11.28,RU,1710692791
356,orda,57.1951,56.9091,-4.99,89,17,3.72,RU,1710692791
357,vallenar,-28.5708,-70.7581,26.99,41,0,3.13,CL,1710692791
358,chittaurgarh,24.8833,74.6333,23.97,23,83,3.83,IN,1710692792
359,axim,4.8699,-2.2405,30.62,70,39,4.26,GH,1710692792
360,tarawa,1.419,172.984,28.05,89,40,4.12,KI,1710692792
361,punta del este,-34.9667,-54.95,25.06,54,0,4.63,UY,1710692792
362,salekhard,66.53,66.6019,-6.51,74,84,11.65,RU,1710692660
363,mirny,62.5353,113.9611,-13.2,78,100,3.13,RU,1710692793
364,happy valley-goose bay,53.3168,-60.3315,0.17,86,75,2.57,CA,1710692793
365,hobyo,5.3505,48.5268,27.74,66,4,6.68,SO,1710692650
366,hemsby,52.6971,1.6918,13.13,95,100,6.6,GB,1710692794
367,howrah,22.5892,88.3103,26.0,73,20,2.57,IN,1710692794
368,nemuro,43.3236,145.575,1.13,98,100,7.21,JP,1710692794
369,villa gesell,-37.2639,-56.973,23.36,41,0,6.06,AR,1710692794
370,novovorontsovka,47.5004,33.9175,8.05,74,100,2.57,UA,1710692795
371,tolanaro,-25.0319,46.9987,28.04,78,20,9.26,MG,1710692795
372,la'ie,21.6477,-157.9253,21.17,75,83,3.13,US,1710692795
373,okhotsk,59.3833,143.3,-5.69,82,100,4.83,RU,1710692795
374,as sanad,34.4628,9.264,23.14,23,29,2.08,TN,1710692795
375,kargil,34.5667,76.1,-16.42,86,100,1.2,IN,1710692796
376,ialibu,-6.2821,143.9935,14.57,98,100,0.49,PG,1710692796
377,ust'-kut,56.7938,105.7672,-5.65,95,100,2.99,RU,1710692796
378,kapa'a,22.0752,-159.319,19.18,73,100,6.69,US,1710692796
379,martapura,-3.4167,114.85,26.05,100,75,2.06,ID,1710692797
380,north bend,43.4065,-124.2243,10.09,87,75,2.57,US,1710692797
381,sweet home,44.3976,-122.7362,12.18,66,1,0.45,US,1710692797
382,arawa,-6.2132,155.5367,25.17,88,100,0.92,PG,1710692797
383,vernon,50.2581,-119.2691,11.83,70,11,3.09,CA,1710692797
384,saddiqabad,28.3062,70.1307,25.18,15,0,2.98,PK,1710692798
385,usogorsk,63.4106,48.6872,-2.41,93,100,2.64,RU,1710692798
386,zinjibar,13.1287,45.3807,26.45,76,2,4.82,YE,1710692798
387,marka,1.7159,44.7717,27.76,75,60,7.18,SO,1710692798
388,bozeman,45.6796,-111.0386,8.45,63,0,0.0,US,1710692630
389,villas,26.5504,-81.8687,29.47,77,40,6.17,US,1710692799
390,escuinapa,22.85,-105.8,24.16,62,12,1.14,MX,1710692799
391,bodo,67.28,14.405,-0.68,53,0,10.8,NO,1710692800
392,ocean shores,46.9737,-124.1563,10.01,90,100,0.89,US,1710692714
393,kadom,54.5592,42.4675,0.11,98,100,2.3,RU,1710692800
394,nongstoin,25.5167,91.2667,14.07,32,0,1.18,IN,1710692800
395,zabid,14.1951,43.3152,29.35,58,43,4.34,YE,1710692800
396,kruisfontein,-34.0033,24.7314,19.94,64,100,6.08,ZA,1710692801
397,lodja,-3.4833,23.4333,30.88,55,32,1.61,CD,1710692801
398,saudarkrokur,65.7461,-19.6394,1.71,94,100,2.05,IS,1710692801
399,fecamp,49.7579,0.3746,16.84,92,100,4.65,FR,1710692801
400,bandarbeyla,9.4942,50.8122,26.45,69,1,6.31,SO,1710692802
401,jinka,5.65,36.65,26.71,33,33,1.1,ET,1710692802
402,cobram,-35.9167,145.65,19.24,63,2,4.38,AU,1710692802
403,san jose del cabo,23.0589,-109.6977,22.55,63,0,6.69,MX,1710692665
404,miles city,46.4083,-105.8406,-0.46,51,0,3.09,US,1710692803
405,cascais,38.6979,-9.4215,25.64,63,20,3.09,PT,1710692803
406,buala,-8.145,159.5921,26.81,88,100,2.92,SB,1710692803
407,drayton valley,53.2168,-114.9854,3.39,87,67,1.75,CA,1710692567
408,tarakan,3.3,117.6333,26.24,81,53,2.08,ID,1710692804
409,linxia chengguanzhen,35.6003,103.2064,2.2,44,100,3.37,CN,1710692804
410,prince rupert,54.3161,-130.3201,9.05,87,0,7.2,CA,1710692804
411,dezhou,37.4486,116.2925,7.19,28,72,3.86,CN,1710692804
412,harrisburg,40.2737,-76.8844,13.69,47,100,8.23,US,1710692509
413,sabang,5.8933,95.3214,28.96,72,35,4.8,ID,1710692805
414,morondava,-20.2833,44.2833,28.85,73,56,4.25,MG,1710692805
415,trinidad,-14.8333,-64.9,29.99,79,75,7.2,BO,1710692805
416,lagos,6.5833,3.75,34.18,61,3,4.43,NG,1710692400
417,ouesso,1.6136,16.0517,30.83,52,69,0.83,CG,1710692806
418,gebeit,21.0667,36.3167,28.72,35,100,5.8,SD,1710692806
419,roma,43.2128,-75.4557,7.54,73,100,4.63,US,1710692806
420,tambopata,-12.7333,-69.1833,28.94,84,75,5.66,PE,1710692807
421,masina,-4.3836,15.3914,35.19,49,40,3.09,CD,1710692807
422,gaspe,48.8334,-64.4819,1.12,86,75,3.09,CA,1710692673
423,igunga,-4.2833,33.8833,25.27,61,39,2.41,TZ,1710692508
424,masaka,-0.3338,31.7341,23.1,62,0,3.9,UG,1710692807
425,ain sukhna,29.6002,32.3167,21.36,47,30,6.93,EG,1710692808
426,shingu,33.7333,135.9833,11.34,88,94,2.76,JP,1710692808
427,san zenon,9.2422,-74.5004,36.02,45,37,1.62,CO,1710692808
428,colorines,19.2,-100.1667,25.03,18,91,2.17,MX,1710692808
429,enoch,37.7733,-113.0244,3.14,92,100,2.06,US,1710692809
430,portland,45.5234,-122.6762,13.36,72,20,2.24,US,1710692480
431,silva jardim,-22.6508,-42.3917,36.99,50,6,2.84,BR,1710692809
432,port antonio,18.18,-76.4612,30.95,69,8,5.53,JM,1710692809
433,tateyama,34.9833,139.8667,15.05,69,100,5.2,JP,1710692810
434,horqueta,-23.3428,-57.0597,40.78,27,41,3.98,PY,1710692546
435,naze,28.3667,129.4833,16.51,74,43,7.34,JP,1710692810
436,rizokarpaso,35.6,34.375,15.84,65,100,4.31,CY,1710692810
437,bedele,8.456,36.353,22.38,32,33,1.36,ET,1710692811
438,bilimbay,56.9689,59.8149,-2.79,87,10,3.44,RU,1710692811
439,osby,56.3816,13.9936,5.01,41,1,3.4,SE,1710692811
440,nieuw amsterdam,5.8833,-55.0833,32.09,58,40,5.14,SR,1710692811
441,coquimbo,-29.9533,-71.3436,17.85,77,20,6.69,CL,1710692596
442,tondano,1.3038,124.9112,20.05,93,97,1.04,ID,1710692812
443,sampit,-2.5333,112.95,24.08,95,72,1.24,ID,1710692812
444,ataq,14.5377,46.8319,25.51,41,0,6.54,YE,1710692812
445,sabrum,23.0,91.7319,25.2,52,0,1.23,IN,1710692812
446,tubarjal,30.4999,38.216,26.55,17,96,2.87,SA,1710692813
447,selfoss,63.9331,-20.9971,5.58,83,97,4.43,IS,1710692813
448,bereznik,62.8551,42.7072,-4.12,91,100,3.45,RU,1710692813
449,nagqu,31.5,92.0,-3.17,15,100,2.48,CN,1710692813
450,antsiranana,-12.2787,49.2917,26.26,83,30,4.37,MG,1710692814
451,east ballina,-28.8667,153.5833,20.44,86,41,2.85,AU,1710692814
452,malango,-2.9627,119.9001,19.98,94,100,1.07,ID,1710692814
453,kayunga,0.7025,32.8886,26.47,52,15,3.37,UG,1710692814
454,vadso,70.0744,29.7487,-5.51,79,40,5.66,NO,1710692814
455,kurumkan,54.3,110.3,-13.82,83,100,1.79,RU,1710692659
456,albu kamal,34.45,40.9186,22.48,28,96,7.1,SY,1710692815
457,cadale,2.7603,46.3222,28.21,71,29,7.67,SO,1710692815
458,paita,-5.0892,-81.1144,25.72,68,95,3.62,PE,1710692816
459,walvis bay,-22.9575,14.5053,17.27,63,34,7.7,NA,1710692816
460,nikolayevsk-on-amure,53.1406,140.73,-13.52,98,100,1.42,RU,1710692816
461,harper,4.375,-7.7169,30.62,68,41,3.11,LR,1710692816
462,isetskoye,56.4858,65.3226,-3.09,87,16,4.25,RU,1710692537
463,brinkmann,-30.8659,-62.0374,26.68,71,67,3.86,AR,1710692817
464,galliano,29.4422,-90.2992,19.0,88,100,7.2,US,1710692817
465,monte santo,-10.4378,-39.3328,34.18,29,56,4.11,BR,1710692817
466,sarkand,45.41,79.9186,1.02,69,38,3.01,KZ,1710692817
467,belyy yar,53.6039,91.3903,-0.06,59,0,4.0,RU,1710692818
468,ulladulla,-35.35,150.4667,18.66,94,100,4.14,AU,1710692818
469,hami,42.8,93.45,3.87,24,0,1.01,CN,1710692818
470,vilyuchinsk,52.9306,158.4028,-1.71,97,100,1.92,RU,1710692818
471,zhenlai,45.8495,123.2973,-3.54,59,9,5.09,CN,1710692819
472,tagta,41.6504,59.9164,10.97,58,55,2.06,TM,1710692819
473,khovd,48.0056,91.6419,-2.54,33,6,1.3,MN,1710692819
474,borovichi,58.3878,33.9155,5.01,84,100,5.36,RU,1710692819
475,bereket,39.2446,55.5154,17.01,44,100,2.47,TM,1710692820
476,cuyo,10.8525,121.0086,26.78,81,97,9.2,PH,1710692820
477,vredendal,-31.6683,18.5012,33.05,18,67,6.71,ZA,1710692820
478,pemangkat,1.1667,108.9667,26.03,87,100,3.3,ID,1710692820
479,porto seguro,-16.4497,-39.0647,32.29,70,40,7.72,BR,1710692818
480,floro,61.5996,5.0328,6.04,36,0,7.2,NO,1710692821
481,yukhnov,54.7444,35.2297,0.77,100,100,2.29,RU,1710692821
482,mata-utu,-13.2816,-176.1745,28.27,78,100,2.49,WF,1710692569
483,campo grande,-20.4428,-54.6464,31.75,58,75,5.66,BR,1710692165
484,acapulco de juarez,16.8634,-99.8901,25.9,78,75,3.6,MX,1710692651
485,saint-pierre,-21.3393,55.4781,27.82,69,0,2.57,RE,1710692682
486,kuqa,41.7278,82.9364,6.65,29,0,3.26,CN,1710692579
487,xichang,27.8964,102.2634,14.38,43,5,0.7,CN,1710692822
488,nizhniy kuranakh,58.8353,125.4869,-25.87,100,44,1.51,RU,1710692822
489,revda,56.801,59.9303,-2.25,85,8,3.5,RU,1710692823
490,bantay,17.5847,120.3892,24.43,76,2,1.0,PH,1710692823
491,ghat,24.9647,10.1728,24.35,14,0,6.97,LY,1710692823
492,sao miguel do tapuio,-5.5036,-41.3233,29.84,76,99,2.12,BR,1710692823
493,bonthe,7.5264,-12.505,30.94,68,46,5.81,SL,1710692824
494,calca,-13.3333,-71.95,15.64,68,100,1.28,PE,1710692824
495,los osos,35.3111,-120.8324,15.43,85,0,0.0,US,1710692559
496,sona,45.4388,10.8255,19.16,66,0,2.06,IT,1710692824
497,suva,-18.1416,178.4415,23.71,94,40,0.0,FJ,1710692825
498,uturoa,-16.7333,-151.4333,28.19,73,67,2.45,PF,1710692825
499,seydi,39.4816,62.9137,17.46,28,65,4.35,TM,1710692576
500,aldan,58.6031,125.3894,-24.03,98,38,2.51,RU,1710692825
501,la passe,45.5549,-0.8967,18.13,82,100,2.08,FR,1710692826
502,llallagua,-18.4167,-66.6333,12.29,60,100,4.02,BO,1710692826
503,leava,-14.3,-178.1667,27.12,83,100,5.05,WF,1710692826
504,el calafate,-50.3408,-72.2768,5.43,63,14,5.35,AR,1710692826
505,kashgar,39.4547,75.9797,7.56,29,6,2.0,CN,1710692826
506,pishva,35.308,51.7267,17.37,26,5,3.01,IR,1710692827
507,pokaran,26.9167,71.9167,23.49,10,2,2.83,IN,1710692827
508,aykhal,66.0,111.5,-16.0,100,100,3.17,RU,1710692827
509,novaya igirma,57.1334,103.9112,-4.97,95,100,3.99,RU,1710692828
510,elverum,60.8819,11.5623,-1.75,91,98,1.05,NO,1710692728
511,mweka,-4.85,21.5667,30.49,54,16,0.31,CD,1710692828
512,heroica caborca,30.7167,-112.15,14.85,49,1,1.73,MX,1710692828
513,las lomitas,-24.7096,-60.593,35.5,44,100,3.47,AR,1710692829
514,egilsstadir,65.2653,-14.3948,0.95,93,100,3.6,IS,1710692829
515,aswan,24.0934,32.907,28.61,20,72,9.77,EG,1710692829
516,mediesu aurit,47.7833,23.15,9.32,87,100,3.14,RO,1710692830
517,mut,36.6439,33.4389,14.34,66,74,1.9,TR,1710692830
518,liski,50.9841,39.5155,2.84,87,81,2.34,RU,1710692830
519,uryupinsk,50.8047,42.0138,0.9,99,100,1.44,RU,1710692831
520,lijiang,26.8688,100.2207,7.55,46,3,2.82,CN,1710692831
521,nuku'alofa,-21.1333,-175.2,26.19,100,75,6.17,TO,1710692831
522,pasuquin,18.3328,120.6177,23.94,79,4,3.59,PH,1710692831
523,la ronge,55.1001,-105.2842,-11.86,56,40,4.12,CA,1710692832
524,dwarka,22.2394,68.9678,25.11,59,4,5.98,IN,1710692832
525,formosa do rio preto,-11.0483,-45.1931,33.68,38,87,2.21,BR,1710692832
526,kyren,51.6828,102.1408,-7.81,80,44,1.34,RU,1710692832
527,siquijor,9.2142,123.515,26.45,80,24,4.68,PH,1710692832
528,fomboni,-12.28,43.7425,29.77,70,100,4.76,KM,1710692833
529,emerald,-23.5333,148.1667,21.86,83,28,4.6,AU,1710692833
530,mananjary,-21.2167,48.3333,25.86,83,31,3.4,MG,1710692833
531,vila velha,-20.3297,-40.2925,34.97,68,20,5.66,BR,1710692522
532,prado,-17.3411,-39.2208,30.31,69,38,5.25,BR,1710692834
533,ifrane,33.3333,-5.25,20.68,24,73,5.33,MA,1710692834
534,belmonte,-15.8631,-38.8828,30.97,65,41,5.28,BR,1710692834
535,samoylovka,51.184,43.7081,0.1,99,100,1.7,RU,1710692834
536,nizhniy odes,63.6445,54.856,-3.59,85,100,3.1,RU,1710692835
537,olonets,60.9847,32.9698,-3.58,78,100,6.85,RU,1710692835
538,conde,-7.2597,-34.9075,31.7,70,75,5.14,BR,1710692835
539,el fasher,13.6279,25.3494,35.54,13,39,1.42,SD,1710692835
540,bucerias,20.75,-105.3333,26.1,69,20,0.0,MX,1710692808
541,brak,27.5496,14.2714,23.41,20,1,6.89,LY,1710692836
542,inirida,3.8653,-67.9239,30.78,65,86,0.96,CO,1710692836
543,papao,-17.75,-149.55,25.82,76,33,0.63,PF,1710692836
544,yankton,42.8711,-97.3973,-3.27,63,100,9.26,US,1710692836
545,newman,37.3138,-121.0208,14.02,74,2,0.2,US,1710692837
546,slyudyanka,51.6594,103.7061,-7.56,92,99,2.31,RU,1710692837
547,linden,6.0,-58.3,30.5,62,100,2.83,GY,1710692837
548,saint-felicien,48.6501,-72.4491,-0.62,86,100,2.06,CA,1710692837
549,bamboo flat,11.7,92.7167,27.05,83,1,1.03,IN,1710692838
550,nema,57.5067,50.5011,-4.38,95,71,2.85,RU,1710692838
551,hecun,36.5333,114.1111,9.89,21,99,2.57,CN,1710692838
552,zambezi,-13.5432,23.1047,26.62,61,99,3.48,ZM,1710692839
553,lazaro cardenas,17.9583,-102.2,25.86,59,100,1.0,MX,1710692839
554,vurnary,55.4904,46.9648,-2.61,94,100,1.82,RU,1710692598
555,lae,-6.7221,146.9847,26.05,88,100,2.26,PG,1710692839
556,inhambane,-23.865,35.3833,26.35,82,29,2.6,MZ,1710692839
557,iskushuban,10.2837,50.23,24.97,63,0,7.66,SO,1710692840
558,puerto carreno,6.189,-67.4859,34.99,46,20,1.42,CO,1710692840
559,skidaway island,31.9349,-81.0471,24.43,53,100,4.92,US,1710692840
560,debre mark'os,10.35,37.7333,20.95,27,36,2.65,ET,1710692840
561,saraqib,35.8645,36.8059,15.32,56,100,1.84,SY,1710692841
562,noumea,-22.2763,166.4572,23.99,85,46,4.59,NC,1710692841
563,akureyri,65.6835,-18.0878,0.96,93,75,4.12,IS,1710692841
564,arzgir,45.3728,44.2206,6.67,63,100,3.43,RU,1710692841
565,port moresby,-9.4431,147.1797,25.81,85,92,2.5,PG,1710692842
566,nar'yan-mar,67.6713,53.087,-8.27,92,77,4.47,RU,1710692842
567,weno,7.4515,151.8468,26.84,84,100,6.05,FM,1710692842
568,ouadda,8.0777,22.4007,25.03,70,86,3.14,CF,1710692842
569,la paz,-16.5,-68.15,15.88,62,75,5.14,BO,1710692617
570,wawarsing,41.759,-74.3574,14.12,61,24,6.32,US,1710692843
571,mili,6.0815,171.735,27.88,79,95,7.04,MH,1710692843
572,trairi,-3.2778,-39.2689,29.78,72,97,4.46,BR,1710692638
573,metro,-5.1131,105.3067,24.33,90,45,1.28,ID,1710692843
574,tralee,52.2704,-9.7026,14.14,58,40,6.69,IE,1710692731
575,balkanabat,39.5108,54.3671,16.54,42,96,2.31,TM,1710692844
